[
  {
    "city": "Yangon",
    "city_mm": "ရန်ကုန်မြို့",
    "lat": "16.7950",
    "lng": "96.1600"
  },
  {
    "city": "Mandalay",
    "city_mm": "မန္တလေးမြို့",
    "lat": "21.9831",
    "lng": "96.0844"
  },
  {
    "city": "Nay Pyi Taw",
    "city_mm": "နေပြည်တော်မြို့",
    "lat": "19.7475",
    "lng": "96.1150"
  },
  {
    "city": "Kyaukse",
    "city_mm": "ကျောက်ဆည်မြို့",
    "lat": "21.6131",
    "lng": "96.1303"
  },
  {
    "city": "Hpa-An",
    "city_mm": "ဘားအံမြို့",
    "lat": "16.8906",
    "lng": "97.6333"
  },
  {
    "city": "Maungdaw",
    "city_mm": "မောင်တောမြို့",
    "lat": "20.8167",
    "lng": "92.3667"
  },
  {
    "city": "Magway",
    "city_mm": "မကွေးမြို့",
    "lat": "20.1500",
    "lng": "94.9500"
  },
  {
    "city": "Pathein",
    "city_mm": "ပုသိမ်မြို့",
    "lat": "16.7842",
    "lng": "94.7333"
  },
  {
    "city": "Bago",
    "city_mm": "ပဲခူးမြို့",
    "lat": "17.3333",
    "lng": "96.4833"
  },
  {
    "city": "Taunggyi",
    "city_mm": "တောင်ကြီးမြို့",
    "lat": "20.7836",
    "lng": "97.0354"
  },
  {
    "city": "Mawlamyine",
    "city_mm": "မော်လမြိုင်မြို့",
    "lat": "16.4847",
    "lng": "97.6258"
  },
  {
    "city": "Natogyi",
    "city_mm": "နတုတ်ကြီးမြို့",
    "lat": "21.4167",
    "lng": "95.6500"
  },
  {
    "city": "Myitkyina",
    "city_mm": "မြစ်ကြီးနားမြို့",
    "lat": "25.3833",
    "lng": "97.4000"
  },
  {
    "city": "Myeik",
    "city_mm": "မြိတ်မြို့",
    "lat": "12.4333",
    "lng": "98.6000"
  },
  {
    "city": "Monywa",
    "city_mm": "မုံရွာမြို့",
    "lat": "22.1083",
    "lng": "95.1417"
  },
  {
    "city": "Myawadi",
    "city_mm": "မြဝတီမြို့",
    "lat": "16.6878",
    "lng": "98.5083"
  },
  {
    "city": "Thanhlyin",
    "city_mm": "သန်လျင်မြို့",
    "lat": "16.7333",
    "lng": "96.2500"
  },
  {
    "city": "Meiktila",
    "city_mm": "မိတ္ထီလာမြို့",
    "lat": "20.8833",
    "lng": "95.8833"
  },
  {
    "city": "Letpandan",
    "city_mm": "လက်ပံတန်းမြို့",
    "lat": "17.7866",
    "lng": "95.7507"
  },
  {
    "city": "Hinthada",
    "city_mm": "ဟင်္သာတမြို့",
    "lat": "17.6461",
    "lng": "95.4603"
  },
  {
    "city": "Thingangyun",
    "city_mm": "သင်္ဃန်းကျွန်းမြို့",
    "lat": "16.8281",
    "lng": "96.1842"
  },
  {
    "city": "Minbya",
    "city_mm": "မင်းပြားမြို့",
    "lat": "20.3622",
    "lng": "93.2733"
  },
  {
    "city": "Katha",
    "city_mm": "ကသာမြို့",
    "lat": "24.1822",
    "lng": "96.3306"
  },
  {
    "city": "Mogok",
    "city_mm": "မိုးကုတ်မြို့",
    "lat": "22.9167",
    "lng": "96.5000"
  },
  {
    "city": "Kyaunggon",
    "city_mm": "ကျောင်းကုန်းမြို့",
    "lat": "17.1000",
    "lng": "95.1833"
  },
  {
    "city": "Mahlaing",
    "city_mm": "မလှိုင်မြို့",
    "lat": "21.0900",
    "lng": "95.6400"
  },
  {
    "city": "Mudon",
    "city_mm": "မုဒုံမြို့",
    "lat": "16.2578",
    "lng": "97.7164"
  },
  {
    "city": "Lashio",
    "city_mm": "လားရှိုးမြို့",
    "lat": "22.9333",
    "lng": "97.7500"
  },
  {
    "city": "Dawei",
    "city_mm": "ထားဝယ်မြို့",
    "lat": "14.0833",
    "lng": "98.2000"
  },
  {
    "city": "Taungdwingyi",
    "city_mm": "တောင်တွင်းကြီးမြို့",
    "lat": "20.0017",
    "lng": "95.5461"
  },
  {
    "city": "Thanatpin",
    "city_mm": "သနပ်ပင်မြို့",
    "lat": "17.2942",
    "lng": "96.5800"
  },
  {
    "city": "Myebon",
    "city_mm": "မြေပုံမြို့",
    "lat": "20.0500",
    "lng": "93.3667"
  },
  {
    "city": "Pyay",
    "city_mm": "ပြည်မြို့",
    "lat": "18.8200",
    "lng": "95.2156"
  },
  {
    "city": "Thandwe",
    "city_mm": "သံတွဲမြို့",
    "lat": "18.4667",
    "lng": "94.3667"
  },
  {
    "city": "Mogaung",
    "city_mm": "မိုးကောင်းမြို့",
    "lat": "25.3014",
    "lng": "96.9417"
  },
  {
    "city": "Thaton",
    "city_mm": "သထုံမြို့",
    "lat": "16.9333",
    "lng": "97.3667"
  },
  {
    "city": "Ponnagyun",
    "city_mm": "ပုဏ္ဏားကျွန်းမြို့",
    "lat": "20.3342",
    "lng": "93.0039"
  },
  {
    "city": "Pakokku",
    "city_mm": "ပခုက္ခမြို့",
    "lat": "21.3320",
    "lng": "95.0866"
  },
  {
    "city": "An",
    "city_mm": "အမ်းမြို့",
    "lat": "19.7833",
    "lng": "94.0333"
  },
  {
    "city": "Taungoo",
    "city_mm": "တောင်ငူမြို့",
    "lat": "18.9333",
    "lng": "96.4333"
  },
  {
    "city": "Htison",
    "city_mm": "ဌာဆုံမြို့",
    "lat": "15.9000",
    "lng": "98.1833"
  },
  {
    "city": "Sittwe",
    "city_mm": "စစ်တွေမြို့",
    "lat": "20.1670",
    "lng": "92.7850"
  },
  {
    "city": "Pyinmana",
    "city_mm": "ပျဉ်းမနားမြို့",
    "lat": "19.7500",
    "lng": "96.2000"
  },
  {
    "city": "Hakha",
    "city_mm": "ဟားခါးမြို့",
    "lat": "22.6455",
    "lng": "93.6050"
  },
  {
    "city": "Amarapura",
    "city_mm": "အမရပူရမြို့",
    "lat": "21.9000",
    "lng": "96.0500"
  },
  {
    "city": "Loikaw",
    "city_mm": "လွိုင်ကော်မြို့",
    "lat": "19.6742",
    "lng": "97.2092" 
  },
  {
    "city": "Keng Tung",
    "city_mm": "ကျိုင်းတုံမြို့",
    "lat": "21.2827",
    "lng": "99.6230"
  },
  {
    "city": "Nansang",
    "city_mm": "နမ့်စန်မြို့",
    "lat": "20.8873",
    "lng": "97.7351"
  },{
    "city": "Mongton",
    "city_mm": "မိုင်းတုံမြို့",
    "lat": "20.2920",
    "lng": "98.8941"
  },
  {
    "city": "Kalaw",
    "city_mm": "ကလောမြို့",
    "lat": "20.6333",
    "lng": "96.5666"
  }
]