{
  "Kachin State": [
    { "city": "Myitkyina", "city_mm": "မြစ်ကြီးနားမြို့", "lat": "25.3860", "lng": "97.3944" },
    { "city": "Hsinbo", "city_mm": "ဆင်ဘိုမြို့", "lat": "25.0500", "lng": "96.9500" },
    { "city": "Waingmaw", "city_mm": "ဝိုင်းမော်မြို့", "lat": "25.3833", "lng": "97.4333" },
    { "city": "Sadon", "city_mm": "ဆဒုံးမြို့", "lat": "25.4667", "lng": "98.0833" },
    { "city": "Kan Paik Ti", "city_mm": "ကန်ပိုက်တီမြို့", "lat": "25.4032", "lng": "98.1174" },
    { "city": "Injangyang", "city_mm": "အင်ဂျန်းယန်မြို့", "lat": "25.8667", "lng": "97.8500" },
    { "city": "Tanai", "city_mm": "တနိုင်းမြို့", "lat": "26.0333", "lng": "96.7500" },
    { "city": "Shin Bway Yang", "city_mm": "ရှင်ဗွေယန်မြို့", "lat": "26.6000", "lng": "96.1333" },
    { "city": "Chipwi", "city_mm": "ချီဖွေမြို့", "lat": "26.8800", "lng": "98.2833" },
    { "city": "Pang War", "city_mm": "ပန်ဝါမြို့", "lat": "26.8667", "lng": "98.3500" },
    { "city": "Tsawlaw", "city_mm": "ဆော့လော်မြို့", "lat": "27.5900", "lng": "97.4200" },
    { "city": "Mohnyin", "city_mm": "မိုးညှင်းမြို့", "lat": "24.7764", "lng": "96.7227" },
    { "city": "Hopin", "city_mm": "ဟိုပင်မြို့", "lat": "25.1000", "lng": "96.3000" },
    { "city": "Indawgyi", "city_mm": "အင်းတော်ကြီးမြို့", "lat": "25.0500", "lng": "96.3300" },
    { "city": "Nam Mun", "city_mm": "နန်းမားမြို့", "lat": "25.6667", "lng": "96.6700" },
    { "city": "Namma", "city_mm": "နန်းမားမြို့", "lat": "25.5500", "lng": "97.0000" },
    { "city": "Mogaung", "city_mm": "မိုးကောင်းမြို့", "lat": "25.2333", "lng": "96.9500" },
    { "city": "Namti", "city_mm": "နမ္မတီးမြို့", "lat": "24.9833", "lng": "97.6833" },
    { "city": "Hpakant", "city_mm": "ဖားကန့်မြို့", "lat": "25.6022", "lng": "96.4667" },
    { "city": "Kamaing", "city_mm": "ကာမိုင်းမြို့", "lat": "25.3833", "lng": "96.8833" },
    { "city": "Bhamo", "city_mm": "ဗန်းမော်မြို့", "lat": "24.2644", "lng": "97.2333" },
    { "city": "Shwegu", "city_mm": "ရွှေကူမြို့", "lat": "24.3333", "lng": "96.9167" },
    { "city": "Myohla", "city_mm": "မြို့လှမြို့", "lat": "24.4333", "lng": "96.5667" },
    { "city": "Momauk", "city_mm": "မိုးမောက်မြို့", "lat": "24.5983", "lng": "97.2850" },
    { "city": "Lweje", "city_mm": "လွယ်ဂျယ်မြို့", "lat": "24.7667", "lng": "97.9167" },
    { "city": "Dawthponeyan", "city_mm": "ဒေါ့ဖုန်းယန်မြို့", "lat": "25.2000", "lng": "97.2000" },
    { "city": "Mansi", "city_mm": "မံစီမြို့", "lat": "24.3000", "lng": "97.2500" },
    { "city": "Putao", "city_mm": "ပူတာအိုမြို့", "lat": "27.3330", "lng": "97.4000" },
    { "city": "Sumprabum", "city_mm": "ဆွမ်ပရာဘွမ်မြို့", "lat": "27.2833", "lng": "97.5500" },
    { "city": "Machanbaw", "city_mm": "မချမ်းဘောမြို့", "lat": "27.3167", "lng": "97.1333" },
    { "city": "Nogmung", "city_mm": "နောင်မွန်းမြို့", "lat": "27.5167", "lng": "96.8833" },
    { "city": "Pannandin", "city_mm": "ပန်နန်းဒင်မြို့", "lat": "27.8000", "lng": "97.2000" },
    { "city": "Kawnglanghpu", "city_mm": "ခေါင်လန်ဖူးမြို့", "lat": "28.2833", "lng": "97.0333" }
  ],
  "Kayah State": [
    { "city": "Loikaw", "city_mm": "လွိုင်ကော်မြို့", "lat": "19.6650", "lng": "97.2060" },
    { "city": "Loilen Lay", "city_mm": "လွိုင်လင်လေးမြို့", "lat": "19.5667", "lng": "97.2167" },
    { "city": "Demoso", "city_mm": "ဒီးမော့ဆိုမြို့", "lat": "19.6325", "lng": "97.2852" },
    { "city": "Nan Mei Khon", "city_mm": "နန်းမယ်ခုံမြို့", "lat": "19.5300", "lng": "97.2500" },
    { "city": "Hpruso", "city_mm": "ဖရူဆိုမြို့", "lat": "19.4400", "lng": "97.2200" },
    { "city": "Shadaw", "city_mm": "ရှားတောမြို့", "lat": "19.4167", "lng": "97.5333" },
    { "city": "Bawlakhe", "city_mm": "ဘောလခဲမြို့", "lat": "18.9762", "lng": "97.0382" },
    { "city": "Ywathit", "city_mm": "ရွာသစ်မြို့", "lat": "18.8167", "lng": "97.1667" },
    { "city": "Hpasawng", "city_mm": "ဖားဆောင်းမြို့", "lat": "18.8233", "lng": "96.9844" },
    { "city": "Mese", "city_mm": "မယ်စဲမြို့", "lat": "18.3050", "lng": "97.4850" }
  ],
  "Kayin State": [
    { "city": "Hpa-An", "city_mm": "ဘားအံမြို့", "lat": "16.8890", "lng": "97.6333" },
    { "city": "Hlaingbwe", "city_mm": "လှိုင်းဘွဲ့မြို့", "lat": "17.3311", "lng": "97.7667" },
    { "city": "Paingkyon", "city_mm": "ပိုင်ကျုံမြို့", "lat": "17.1167", "lng": "97.6833" },
    { "city": "Shan Ywar Thit", "city_mm": "ရှမ်းရွာသစ်မြို့", "lat": "17.3000", "lng": "97.9500" },
    { "city": "Hpapun", "city_mm": "ဖာပွန်မြို့", "lat": "18.0418", "lng": "97.4334" },
    { "city": "Kamarmaung", "city_mm": "ကမမောင်းမြို့", "lat": "17.9000", "lng": "97.4167" },
    { "city": "Thandaunggyi", "city_mm": "သံတောင်ကြီးမြို့", "lat": "19.0500", "lng": "96.8667" },
    { "city": "Thandaung", "city_mm": "သံတောင်မြို့", "lat": "18.9300", "lng": "96.7500" },
    { "city": "Leik Tho", "city_mm": "လိပ်သိုမြို့", "lat": "18.8100", "lng": "96.7000" },
    { "city": "Baw Ga Li", "city_mm": "ဘောဂလိမြို့", "lat": "18.6500", "lng": "96.6000" },
    { "city": "Myawaddy", "city_mm": "မြဝတီမြို့", "lat": "16.6880", "lng": "98.5085" },
    { "city": "Su Ka Li", "city_mm": "စုကလိမြို့", "lat": "16.7667", "lng": "98.3333" },
    { "city": "Waw Lay Myaing", "city_mm": "ဝေါလေမြိုင်မြို့", "lat": "16.5540", "lng": "98.3570" },
    { "city": "Kawkareik", "city_mm": "ကော့ကရိတ်မြို့", "lat": "16.5600", "lng": "98.4231" },
    { "city": "Kyondoe", "city_mm": "ကျုံဒိုးမြို့", "lat": "16.7083", "lng": "98.2500" },
    { "city": "Kyainseikgyi", "city_mm": "ကြာအင်းဆိပ်ကြီးမြို့", "lat": "15.8790", "lng": "97.9430" },
    { "city": "Payathonzu", "city_mm": "ဘုရားသုံးဆူမြို့", "lat": "15.9990", "lng": "97.8978" },
    { "city": "Kyaikdon", "city_mm": "ကျိုက်ဒုံမြို့", "lat": "16.0546", "lng": "98.2535" }
  ],
  "Chin State": [
    { "city": "Falam", "city_mm": "ဖလမ်းမြို့", "lat": "22.9167", "lng": "93.6833" },
    { "city": "Rikhawdar", "city_mm": "ရိခေါ်ဒါရ်မြို့", "lat": "23.3667", "lng": "93.5000" },
    { "city": "Webula", "city_mm": "ဝေဘူလမြို့", "lat": "23.3333", "lng": "93.4333" },
    { "city": "Hakha", "city_mm": "ဟားခါးမြို့", "lat": "22.6500", "lng": "93.6167" },
    { "city": "Surkhua", "city_mm": "ဆူခွားမြို့", "lat": "22.5333", "lng": "93.7333" },
    { "city": "Thantlang", "city_mm": "ထန်တလန်မြို့", "lat": "23.0000", "lng": "93.6833" },
    { "city": "Hnaring", "city_mm": "နှာဟရိန်မြို့", "lat": "22.8500", "lng": "93.9333" },
    { "city": "Tedim", "city_mm": "တီးတိန်မြို့", "lat": "23.3513", "lng": "93.6666" },
    { "city": "Khaikam", "city_mm": "ခိုင်ကမ်းမြို့", "lat": "23.4333", "lng": "93.5500" },
    { "city": "Tonzang", "city_mm": "တွန်းဇန်မြို့", "lat": "23.5000", "lng": "93.2000" },
    { "city": "Cikha", "city_mm": "ကျီခါးမြို့", "lat": "23.3833", "lng": "93.2500" },
    { "city": "Mindat", "city_mm": "မင်းတပ်မြို့", "lat": "21.3860", "lng": "93.9355" },
    { "city": "M’kuiimnu", "city_mm": "မကွီအိမ်နူးမြို့", "lat": "21.2167", "lng": "94.0333" },
    { "city": "Matupi", "city_mm": "မတူပီမြို့", "lat": "21.6712", "lng": "93.4419" },
    { "city": "Rezua", "city_mm": "ရေဇွာမြို့", "lat": "21.9050", "lng": "93.6340" },
    { "city": "Lalengpi", "city_mm": "လိုင်လင်းပီမြို့", "lat": "21.3333", "lng": "93.2000" },
    { "city": "Kanpetlet", "city_mm": "ကန်ပက်လက်မြို့", "lat": "21.1989", "lng": "93.9360" },
    { "city": "Kyin Dway", "city_mm": "ကျင်ဒွေးမြို့", "lat": "21.0500", "lng": "94.0500" },
    { "city": "Paletwa", "city_mm": "ပလက်ဝမြို့", "lat": "21.3280", "lng": "92.8542" },
    { "city": "Samee", "city_mm": "ဆမီးမြို့", "lat": "21.6167", "lng": "93.0500" }
  ],
  "Sagaing Region": [
    { "city": "Sagaing", "city_mm": "စစ်ကိုင်းမြို့", "lat": "21.8750", "lng": "95.9786" },
    { "city": "Sar Taung", "city_mm": "ဆားတောင်မြို့", "lat": "21.8000", "lng": "95.9333" },
    { "city": "Myinmu", "city_mm": "မြင်းမူမြို့", "lat": "21.9411", "lng": "95.5947" },
    { "city": "Myaung", "city_mm": "မြောင်မြို့", "lat": "21.2833", "lng": "95.2167" },
    { "city": "Shwebo", "city_mm": "ရွှေဘိုမြို့", "lat": "22.5670", "lng": "95.6980" },
    { "city": "Kyauk Myaung", "city_mm": "ကျောက်မြောင်းမြို့", "lat": "22.3279", "lng": "96.4194" },
    { "city": "Khin-U", "city_mm": "ခင်ဦးမြို့", "lat": "22.4800", "lng": "95.6000" },
    { "city": "Wetlet", "city_mm": "ဝက်လက်မြို့", "lat": "22.3410", "lng": "95.7835" },
    { "city": "Kanbalu", "city_mm": "ကန့်ဘလူမြို့", "lat": "23.4211", "lng": "95.7027" },
    { "city": "Zee Kone", "city_mm": "ဇီးကုန်းမြို့", "lat": "23.6000", "lng": "95.6244" },
    { "city": "Kyunhla", "city_mm": "ကျွန်းလှမြို့", "lat": "23.5667", "lng": "95.2500" },
    { "city": "Ye-U", "city_mm": "ရေဦးမြို့", "lat": "23.3333", "lng": "95.1167" },
    { "city": "Tabayin", "city_mm": "ဒီပဲယင်းမြို့", "lat": "23.5416", "lng": "94.6895" },
    { "city": "Saing Pyin", "city_mm": "စိုင်ပြင်မြို့", "lat": "23.4890", "lng": "94.8580" },
    { "city": "Taze", "city_mm": "တန့်ဆည်မြို့", "lat": "23.9788", "lng": "95.2709" },
    { "city": "Monywa", "city_mm": "မုံရွာမြို့", "lat": "22.1050", "lng": "95.1358" },
    { "city": "Budalin", "city_mm": "ဘုတလင်မြို့", "lat": "22.3677", "lng": "95.2193" },
    { "city": "Ayadaw", "city_mm": "အရာတော်မြို့", "lat": "22.1931", "lng": "95.2147" },
    { "city": "Chaung-U", "city_mm": "ချောင်းဦးမြို့", "lat": "21.9592", "lng": "95.4077" },
    { "city": "Yinmabin", "city_mm": "ယင်းမာပင်မြို့", "lat": "22.2335", "lng": "95.7769" },
    { "city": "Kani", "city_mm": "ကနီမြို့", "lat": "21.2792", "lng": "94.9711" },
    { "city": "Salingyi", "city_mm": "ဆားလင်းကြီးမြို့", "lat": "21.9882", "lng": "95.0935" },
    { "city": "Pale", "city_mm": "ပုလဲမြို့", "lat": "21.6992", "lng": "95.1847" },
    { "city": "Katha", "city_mm": "ကသာမြို့", "lat": "24.1800", "lng": "96.3240" },
    { "city": "Indaw", "city_mm": "အင်းတော်မြို့", "lat": "24.1667", "lng": "96.1167" },
    { "city": "Mawlu", "city_mm": "မော်လူးမြို့", "lat": "24.4333", "lng": "95.9167" },
    { "city": "Tigyaing", "city_mm": "ထီးချိုင့်မြို့", "lat": "23.7325", "lng": "95.6397" },
    { "city": "Banmauk", "city_mm": "ဗန်းမောက်မြို့", "lat": "23.6730", "lng": "95.7060" },
    { "city": "Kawlin", "city_mm": "ကောလင်းမြို့", "lat": "23.6029", "lng": "95.1649" },
    { "city": "Wuntho", "city_mm": "ဝန်းသိုမြို့", "lat": "23.0865", "lng": "95.3615" },
    { "city": "Pinlebu", "city_mm": "ပင်လည်ဘူးမြို့", "lat": "24.2160", "lng": "95.3692" },
    { "city": "Kale", "city_mm": "ကလေးမြို့", "lat": "23.1930", "lng": "94.0445" },
    { "city": "Kalewa", "city_mm": "ကလေးဝမြို့", "lat": "23.1985", "lng": "94.3132" },
    { "city": "Mingin", "city_mm": "မင်းကင်းမြို့", "lat": "23.3371", "lng": "94.5218" },
    { "city": "Tamu", "city_mm": "တမူးမြို့", "lat": "24.2189", "lng": "94.2167" },
    { "city": "Myothit (Kale)", "city_mm": "မြို့သစ်မြို့", "lat": "23.1934", "lng": "94.0500" },
    { "city": "Khampat", "city_mm": "ခါမ်းပါတ်မြို့", "lat": "23.1206", "lng": "94.4074" },
    { "city": "Mawlaik", "city_mm": "မော်လိုက်မြို့", "lat": "23.6425", "lng": "94.4033" },
    { "city": "Paungbyin", "city_mm": "ဖောင်းပြင်မြို့", "lat": "24.1333", "lng": "94.5500" },
    { "city": "Hkamti", "city_mm": "ခန္တီးမြို့", "lat": "25.9879", "lng": "95.6747" },
    { "city": "Homalin", "city_mm": "ဟုမ္မလင်းမြို့", "lat": "24.8668", "lng": "94.9145" },
    { "city": "Shwe Pyi Aye", "city_mm": "ရွှေပြည်အေးမြို့", "lat": "25.4000", "lng": "95.6167" },
    { "city": "Mo Waing Lut", "city_mm": "မိုပိုင်းလွတ်မြို့", "lat": "25.2500", "lng": "95.4167" },
    { "city": "Layshi", "city_mm": "လေရှီးမြို့", "lat": "25.7375", "lng": "95.2042" },
    { "city": "Mo Paing Lut", "city_mm": "မိုပိုင်းလွတ်မြို့", "lat": "25.2500", "lng": "95.4167" },
    { "city": "Summa Razup", "city_mm": "ဆွမ္မရာမြို့", "lat": "25.1500", "lng": "95.5500" },
    { "city": "Lahe", "city_mm": "လဟယ်မြို့", "lat": "25.8372", "lng": "94.7358" },
    { "city": "Htan Par Kway", "city_mm": "ထန်ပါခွေမြို့", "lat": "25.7500", "lng": "94.5500" },
    { "city": "Nanyun", "city_mm": "နန်းယွန်းမြို့", "lat": "25.6621", "lng": "96.2016" },
    { "city": "Pansaung", "city_mm": "ပန်ဆောင်မြို့", "lat": "25.2933", "lng": "96.8858" },
    { "city": "Donhee", "city_mm": "ဒုံဟီးမြို့", "lat": "25.1466", "lng": "96.5747" }
  ],
  "Tanintharyi Region": [
    { "city": "Dawei", "city_mm": "ထားဝယ်မြို့", "lat": "14.0820", "lng": "98.1919" },
    { "city": "Myitta", "city_mm": "မေတ္တာမြို့", "lat": "14.2333", "lng": "98.5000" },
    { "city": "Launglon", "city_mm": "လောင်းလုံးမြို့", "lat": "14.0059", "lng": "98.2040" },
    { "city": "Thayetchaung", "city_mm": "သရက်ချောင်းမြို့", "lat": "14.0833", "lng": "98.3000" },
    { "city": "Yebyu", "city_mm": "ရေဖြူမြို့", "lat": "14.6519", "lng": "98.0997" },
    { "city": "Kaleinaung", "city_mm": "ကလိန်အောင်မြို့", "lat": "14.9500", "lng": "98.0500" },
    { "city": "Myeik", "city_mm": "မြိတ်မြို့", "lat": "12.4394", "lng": "98.6003" },
    { "city": "Kyunsu", "city_mm": "ကျွန်းစုမြို့", "lat": "12.2100", "lng": "98.6171" },
    { "city": "Palaw", "city_mm": "ပုလောမြို့", "lat": "12.9897", "lng": "98.5490" },
    { "city": "Palauk", "city_mm": "ပလောက်မြို့", "lat": "12.8833", "lng": "98.5667" },
    { "city": "Pala", "city_mm": "ပလမြို့", "lat": "12.6500", "lng": "98.6000" },
    { "city": "Tanintharyi", "city_mm": "တနင်္သာရီမြို့", "lat": "12.0167", "lng": "99.5333" },
    { "city": "Mawtaung", "city_mm": "မောတောင်မြို့", "lat": "10.2167", "lng": "98.2167" },
    { "city": "Kawthoung", "city_mm": "ကော့သောင်းမြို့", "lat": "9.9833", "lng": "98.5500" },
    { "city": "Khamaukgyi", "city_mm": "ခမောက်ကြီးမြို့", "lat": "11.1500", "lng": "99.1500" },
    { "city": "Bokpyin", "city_mm": "ဘုတ်ပြင်းမြို့", "lat": "11.2308", "lng": "98.7092" },
    { "city": "Pyigyimandaing", "city_mm": "ပြည်ကြီးမဏ္ဍိုင်မြို့", "lat": "11.6958", "lng": "98.5333" },
    { "city": "Karathuri", "city_mm": "ကရသူရိမြို့", "lat": "11.2333", "lng": "98.6167" }
  ],
  "Bago Region": [
    { "city": "Bago", "city_mm": "ပဲခူးမြို့", "lat": "17.3352", "lng": "96.4814" },
    { "city": "Hpayargyi", "city_mm": "ဘုရားကြီးမြို့", "lat": "17.2667", "lng": "96.5833" },
    { "city": "Inntakaw", "city_mm": "အင်းတကော်မြို့", "lat": "17.5375", "lng": "96.4367" },
    { "city": "Thanatpin", "city_mm": "သနပ်ပင်မြို့", "lat": "17.3025", "lng": "96.5753" },
    { "city": "Kawa", "city_mm": "ကဝမြို့", "lat": "17.1102", "lng": "96.5216" },
    { "city": "Thetkala", "city_mm": "သက္ကလမြို့", "lat": "17.0744", "lng": "96.5067" },
    { "city": "Waw", "city_mm": "ဝေါမြို့", "lat": "17.4851", "lng": "96.3449" },
    { "city": "Nyaunglebin", "city_mm": "ညောင်လေးပင်မြို့", "lat": "17.9537", "lng": "96.7227" },
    { "city": "Madauk", "city_mm": "မဒေါက်မြို့", "lat": "17.8153", "lng": "96.8236" },
    { "city": "Pyuntasa", "city_mm": "ပြွန်တန်ဆာမြို့", "lat": "18.2403", "lng": "96.5947" },
    { "city": "Peinzalok", "city_mm": "ပိန်းဇလုပ်မြို့", "lat": "18.0412", "lng": "96.4548" },
    { "city": "Kyauktaga", "city_mm": "ကျောက်တံခါးမြို့", "lat": "18.2041", "lng": "96.7903" },
    { "city": "Penwegon", "city_mm": "ပဲနွယ်ကုန်းမြို့", "lat": "17.7658", "lng": "96.2742" },
    { "city": "Hpa Do", "city_mm": "ဖဒိုမြို့", "lat": "18.0847", "lng": "96.3306" },
    { "city": "Daik-U", "city_mm": "ဒိုက်ဦးမြို့", "lat": "17.6516", "lng": "96.5758" },
    { "city": "Shwegyin", "city_mm": "ရွှေကျင်မြို့", "lat": "17.9169", "lng": "96.8058" },
    { "city": "Taungoo", "city_mm": "တောင်ငူမြို့", "lat": "18.9417", "lng": "96.4336" },
    { "city": "Kaytumadi", "city_mm": "ကေတုမတီမြို့", "lat": "18.9240", "lng": "96.4592" },
    { "city": "Yedashe", "city_mm": "ရေတာရှည်မြို့", "lat": "18.6736", "lng": "96.5753" },
    { "city": "Hswar", "city_mm": "ဆွာမြို့", "lat": "18.3792", "lng": "96.6461" },
    { "city": "Yenwe", "city_mm": "ရေနီမြို့", "lat": "18.1000", "lng": "96.5600" },
    { "city": "Myo Hla (Bago)", "city_mm": "မြို့လှမြို့", "lat": "18.0833", "lng": "96.7333" },
    { "city": "Kyaukkyi", "city_mm": "ကျောက်ကြီးမြို့", "lat": "17.2992", "lng": "97.0375" },
    { "city": "Phyu", "city_mm": "ဖြူးမြို့", "lat": "18.4803", "lng": "96.4378" },
    { "city": "Kanyutkwin", "city_mm": "ကညွတ်ကွင်းမြို့", "lat": "17.8819", "lng": "96.3833" },
    { "city": "Zayyawadi", "city_mm": "ဇေယျဝတီမြို့", "lat": "17.6967", "lng": "96.5256" },
    { "city": "Oktwin", "city_mm": "အုတ်တွင်းမြို့", "lat": "18.6440", "lng": "96.2540" },
    { "city": "Kywepwe", "city_mm": "ကျွဲပွဲမြို့", "lat": "18.8167", "lng": "96.2500" },
    { "city": "Htantabin (Bago)", "city_mm": "ထန်းတပင်မြို့", "lat": "17.2972", "lng": "96.3542" },
    { "city": "Pyay", "city_mm": "ပြည်မြို့", "lat": "18.8245", "lng": "95.2228" },
    { "city": "Paungde", "city_mm": "ပေါင်းတည်မြို့", "lat": "18.4888", "lng": "95.7355" },
    { "city": "Paukkhaung", "city_mm": "ပေါက်ခေါင်းမြို့", "lat": "18.3398", "lng": "95.6099" },
    { "city": "Padaung", "city_mm": "ပန်းတောင်းမြို့", "lat": "18.3703", "lng": "95.6325" },
    { "city": "Oke Shit Pin", "city_mm": "ဥသျှစ်ပင်မြို့", "lat": "18.4130", "lng": "95.5120" },
    { "city": "Thegon", "city_mm": "သဲကုန်းမြို့", "lat": "18.6494", "lng": "95.4871" },
    { "city": "Putee Kone", "city_mm": "ပုတီးကုန်းမြို့", "lat": "18.7046", "lng": "95.6449" },
    { "city": "Innma", "city_mm": "အင်းမမြို့", "lat": "18.6314", "lng": "95.6568" },
    { "city": "Sinmyaung", "city_mm": "ဆင်မြီးဆွဲမြို့", "lat": "18.5000", "lng": "95.7500" },
    { "city": "Shwedaung", "city_mm": "ရွှေတောင်မြို့", "lat": "18.8238", "lng": "95.6525" },
    { "city": "Thayawady", "city_mm": "သာယာဝတီမြို့", "lat": "17.6490", "lng": "95.7895" },
    { "city": "Thonse", "city_mm": "သုံးဆယ်မြို့", "lat": "17.6963", "lng": "95.9083" },
    { "city": "Letpadan", "city_mm": "လက်ပံတန်းမြို့", "lat": "17.7825", "lng": "95.7423" },
    { "city": "Minhla (Bago)", "city_mm": "မင်းလှမြို့", "lat": "18.1316", "lng": "95.5101" },
    { "city": "Sitkwin", "city_mm": "စစ်ကွင်းမြို့", "lat": "17.9419", "lng": "95.7218" },
    { "city": "Okpho", "city_mm": "အုတ်ဖိုမြို့", "lat": "18.4048", "lng": "95.7426" },
    { "city": "Oethegon", "city_mm": "အိုးသည်ကုန်းမြို့", "lat": "18.4700", "lng": "95.8267" },
    { "city": "Zigon", "city_mm": "ဇီးကုန်းမြို့", "lat": "18.5748", "lng": "95.7168" },
    { "city": "Nattalin", "city_mm": "နတ်တလင်းမြို့", "lat": "18.3775", "lng": "95.9160" },
    { "city": "Tarpun", "city_mm": "တာပွန်မြို့", "lat": "18.1717", "lng": "95.8630" },
    { "city": "Monyo", "city_mm": "မိုးညိုမြို့", "lat": "18.0986", "lng": "95.6775" },
    { "city": "Gyobingauk", "city_mm": "ကြို့ပင်ကောက်မြို့", "lat": "18.2686", "lng": "95.6594" }
  ],
  "Magway Region": [
    { "city": "Magway", "city_mm": "မကွေးမြို့", "lat": "20.1445", "lng": "94.9196" },
    { "city": "Yenangyaung", "city_mm": "ရေနံချောင်းမြို့", "lat": "20.4613", "lng": "94.8714" },
    { "city": "Chauk", "city_mm": "ချောက်မြို့", "lat": "20.8951", "lng": "94.8200" },
    { "city": "Sale", "city_mm": "စလေမြို့", "lat": "20.8008", "lng": "94.7438" },
    { "city": "Taungdwingyi", "city_mm": "တောင်တွင်းကြီးမြို့", "lat": "20.0053", "lng": "95.5448" },
    { "city": "Myothit (Magway)", "city_mm": "မြို့သစ်မြို့", "lat": "20.0063", "lng": "94.6746" },
    { "city": "Natmauk", "city_mm": "နတ်မောက်မြို့", "lat": "20.1830", "lng": "95.3734" },
    { "city": "Minbu", "city_mm": "မင်းဘူးမြို့", "lat": "20.1808", "lng": "94.8747" },
    { "city": "Saku", "city_mm": "စကုမြို့", "lat": "20.2793", "lng": "94.7352" },
    { "city": "Pwintbyu", "city_mm": "ပွင့်ဖြူမြို့", "lat": "20.4320", "lng": "94.9163" },
    { "city": "Ngape", "city_mm": "ငဖဲမြို့", "lat": "20.8539", "lng": "94.5143" },
    { "city": "Salin", "city_mm": "စလင်းမြို့", "lat": "20.5700", "lng": "94.3818" },
    { "city": "Sinbyukyun", "city_mm": "ဆင်ဖြူကျွန်းမြို့", "lat": "20.8452", "lng": "94.6923" },
    { "city": "Sidoktaya", "city_mm": "စေတုတ္တရာမြို့", "lat": "20.4420", "lng": "94.2989" },
    { "city": "Thayet", "city_mm": "သရက်မြို့", "lat": "19.3132", "lng": "95.1779" },
    { "city": "Minhla (Magway)", "city_mm": "မင်းလှမြို့", "lat": "19.1232", "lng": "94.9050" },
    { "city": "Mindon", "city_mm": "မင်းတုန်းမြို့", "lat": "19.3745", "lng": "94.9621" },
    { "city": "Kamma (Magway)", "city_mm": "ကံမမြို့", "lat": "19.5792", "lng": "95.1356" },
    { "city": "Aunglan", "city_mm": "အောင်လံမြို့", "lat": "19.6634", "lng": "95.2213" },
    { "city": "Sinbaungwe", "city_mm": "ဆင်ပေါင်ဝဲမြို့", "lat": "19.8247", "lng": "94.7997" },
    { "city": "Pakokku", "city_mm": "ပခုက္ကူမြို့", "lat": "21.3330", "lng": "95.0848" },
    { "city": "Kamma (Pakokku)", "city_mm": "ကမ္မမြို့", "lat": "21.2500", "lng": "95.1000" },
    { "city": "Myit Chay", "city_mm": "မြစ်ခြေမြို့", "lat": "21.1953", "lng": "95.2542" },
    { "city": "Yesagyo", "city_mm": "ရေစကြိုမြို့", "lat": "21.5431", "lng": "95.1512" },
    { "city": "Myaing", "city_mm": "မြိုင်မြို့", "lat": "21.5338", "lng": "94.9445" },
    { "city": "Pauk", "city_mm": "ပေါက်မြို့", "lat": "21.4933", "lng": "94.5605" },
    { "city": "Seikphyu", "city_mm": "ဆိပ်ဖြူမြို့", "lat": "20.9683", "lng": "94.7141" },
    { "city": "Gangaw", "city_mm": "ဂန့်ဂေါမြို့", "lat": "22.1633", "lng": "94.3310" },
    { "city": "Kyaw", "city_mm": "ကျောမြို့", "lat": "21.9880", "lng": "94.4340" },
    { "city": "Tilin", "city_mm": "ထီးလင်းမြို့", "lat": "21.8081", "lng": "94.4738" },
    { "city": "Saw", "city_mm": "ဆောမြို့", "lat": "21.7290", "lng": "94.4427" },
    { "city": "Kyaukhtu", "city_mm": "ကျောက်ထုမြို့", "lat": "21.6282", "lng": "94.1026" }
  ],
  "Mandalay Region": [
    { "city": "Mandalay", "city_mm": "မန္တလေးမြို့", "lat": "21.9751", "lng": "96.0844" },
    { "city": "Aungmyaythazan", "city_mm": "အောင်မြေသာဇံမြို့", "lat": "21.9912", "lng": "96.0988" },
    { "city": "Chanayethazan", "city_mm": "ချမ်းအေးသာဇံမြို့", "lat": "21.9728", "lng": "96.0963" },
    { "city": "Mahaaungmyay", "city_mm": "မဟာအောင်မြေမြို့", "lat": "21.9529", "lng": "96.0735" },
    { "city": "Chanmyathazi", "city_mm": "ချမ်းမြသာစည်မြို့", "lat": "21.9272", "lng": "96.0838" },
    { "city": "Pyigyidagun", "city_mm": "ပြည်ကြီးတံခွန်မြို့", "lat": "21.9000", "lng": "96.0833" },
    { "city": "Amarapura", "city_mm": "အမရပူရမြို့", "lat": "21.8808", "lng": "96.0556" },
    { "city": "Myitnge", "city_mm": "မြစ်ငယ်မြို့", "lat": "21.8000", "lng": "96.0833" },
    { "city": "Patheingyi", "city_mm": "ပုသိမ်ကြီးမြို့", "lat": "21.9945", "lng": "96.1737" },
    { "city": "Pyin Oo Lwin", "city_mm": "ပြင်ဦးလွင်မြို့", "lat": "22.0350", "lng": "96.4561" },
    { "city": "Madaya", "city_mm": "မတ္တရာမြို့", "lat": "22.2701", "lng": "96.5034" },
    { "city": "Singu", "city_mm": "စဉ့်ကူးမြို့", "lat": "22.5826", "lng": "96.7170" },
    { "city": "Mogok", "city_mm": "မိုးကုတ်မြို့", "lat": "22.9163", "lng": "96.5093" },
    { "city": "Thabeikkyin", "city_mm": "သပိတ်ကျင်းမြို့", "lat": "23.1754", "lng": "96.4210" },
    { "city": "Takaung", "city_mm": "တကောင်းမြို့", "lat": "23.3000", "lng": "96.0848" },
    { "city": "Kyaukse", "city_mm": "ကျောက်ဆည်မြို့", "lat": "21.6075", "lng": "96.1321" },
    { "city": "Sintgaing", "city_mm": "စဉ့်ကိုင်မြို့", "lat": "21.5260", "lng": "96.1006" },
    { "city": "Myittha", "city_mm": "မြစ်သားမြို့", "lat": "21.3675", "lng": "96.2065" },
    { "city": "Kume", "city_mm": "ကူမဲမြို့", "lat": "21.3000", "lng": "96.2000" },
    { "city": "Tada-U", "city_mm": "တံတားဦးမြို့", "lat": "21.8786", "lng": "95.9789" },
    { "city": "Myingyan", "city_mm": "မြင်းခြံမြို့", "lat": "21.4608", "lng": "95.3887" },
    { "city": "Simee", "city_mm": "ဆီမီးခုံမြို့", "lat": "21.1670", "lng": "95.9894" },
    { "city": "Taungtha", "city_mm": "တောင်သာမြို့", "lat": "20.7864", "lng": "95.4788" },
    { "city": "Natogyi", "city_mm": "နွားထိုးကြီးမြို့", "lat": "21.0535", "lng": "95.7174" },
    { "city": "Kyaukpadaung", "city_mm": "ကျောက်ပန်းတောင်းမြို့", "lat": "20.8313", "lng": "95.1920" },
    { "city": "Ngazun", "city_mm": "ငါန်းဇွန်မြို့", "lat": "21.9993", "lng": "95.7825" },
    { "city": "Nyaung-U", "city_mm": "ညောင်ဦးမြို့", "lat": "21.2040", "lng": "94.9250" },
    { "city": "Bagan", "city_mm": "ပုဂံမြို့", "lat": "21.1724", "lng": "94.8617" },
    { "city": "Ngathayauk", "city_mm": "ငါ့သရောက်မြို့", "lat": "21.3341", "lng": "94.8102" },
    { "city": "Yamethin", "city_mm": "ရမည်းသင်းမြို့", "lat": "20.4275", "lng": "96.1386" },
    { "city": "Pyawbwe", "city_mm": "ပျော်ဘွယ်မြို့", "lat": "20.6057", "lng": "96.0424" },
    { "city": "Meiktila", "city_mm": "မိတ္ထီလာမြို့", "lat": "20.8778", "lng": "95.8586" },
    { "city": "Mahlaing", "city_mm": "မလှိုင်မြို့", "lat": "20.6881", "lng": "95.5277" },
    { "city": "Thazi", "city_mm": "သာစည်မြို့", "lat": "20.8789", "lng": "96.0419" },
    { "city": "Wundwin", "city_mm": "ဝမ်းတွင်းမြို့", "lat": "20.8300", "lng": "96.1800" }
  ],
  "Mon State": [
    { "city": "Mawlamyine", "city_mm": "မော်လမြိုင်မြို့", "lat": "16.4905", "lng": "97.6283" },
    { "city": "Kyaikmaraw", "city_mm": "ကျိုက်မရောမြို့", "lat": "16.5539", "lng": "97.7279" },
    { "city": "Chaungzon", "city_mm": "ချောင်းဆုံမြို့", "lat": "16.5547", "lng": "97.6125" },
    { "city": "Thanbyuzayat", "city_mm": "သံဖြူဇရပ်မြို့", "lat": "15.9198", "lng": "97.7384" },
    { "city": "Kyaikkhami", "city_mm": "ကျိုက္ခမီမြို့", "lat": "16.0903", "lng": "97.5663" },
    { "city": "Mudon", "city_mm": "မုဒုံမြို့", "lat": "16.2562", "lng": "97.7169" },
    { "city": "Kamarwet", "city_mm": "ကမာဝက်မြို့", "lat": "16.4425", "lng": "97.6492" },
    { "city": "Ye", "city_mm": "ရေးမြို့", "lat": "15.2533", "lng": "97.8678" },
    { "city": "Lamaing", "city_mm": "လမိုင်းမြို့", "lat": "15.8833", "lng": "97.8833" },
    { "city": "Khawzar", "city_mm": "ခေါဇာမြို့", "lat": "15.6013", "lng": "98.0204" },
    { "city": "Thaton", "city_mm": "သထုံမြို့", "lat": "17.3083", "lng": "96.4969" },
    { "city": "Thuwunnawady", "city_mm": "သုဝဏ္ဏဝတီမြို့", "lat": "17.2200", "lng": "96.5300" },
    { "city": "Paung", "city_mm": "ပေါင်မြို့", "lat": "16.5055", "lng": "97.4729" },
    { "city": "Zinkyaik", "city_mm": "ဇင်းကျိုက်မြို့", "lat": "16.7200", "lng": "97.4200" },
    { "city": "Kyaikto", "city_mm": "ကျိုက်ထိုမြို့", "lat": "17.3072", "lng": "97.0105" },
    { "city": "Theinzayat", "city_mm": "သိမ်ဇရပ်မြို့", "lat": "16.6644", "lng": "97.3586" },
    { "city": "Bilin", "city_mm": "ဘီးလင်းမြို့", "lat": "17.1648", "lng": "97.0840" }
  ],
  "Rakhine State": [
    { "city": "Sittwe", "city_mm": "စစ်တွေမြို့", "lat": "20.1462", "lng": "92.8963" },
    { "city": "Ponnagyun", "city_mm": "ပုဏ္ဏားကျွန်းမြို့", "lat": "20.5936", "lng": "92.7050" },
    { "city": "Mrauk-U", "city_mm": "မြောက်ဦးမြို့", "lat": "20.5936", "lng": "93.1925" },
    { "city": "Kyauktaw", "city_mm": "ကျောက်တော်မြို့", "lat": "20.9058", "lng": "93.1334" },
    { "city": "Minbya", "city_mm": "မင်းပြားမြို့", "lat": "20.1633", "lng": "93.2560" },
    { "city": "Myebon", "city_mm": "မြေပုံမြို့", "lat": "20.2060", "lng": "93.3410" },
    { "city": "Kanhtaunggyi", "city_mm": "ကမ်းထောင့်ကြီးမြို့", "lat": "19.8550", "lng": "93.5060" },
    { "city": "Pauktaw", "city_mm": "ပေါက်တောမြို့", "lat": "20.1000", "lng": "92.9000" },
    { "city": "Rathedaung", "city_mm": "ရသေ့တောင်မြို့", "lat": "20.8378", "lng": "92.8776" },
    { "city": "Maungdaw", "city_mm": "မောင်တောမြို့", "lat": "21.2858", "lng": "92.1893" },
    { "city": "Taungpyo (Letwe)", "city_mm": "တောင်ပြိုလက်ဝဲမြို့", "lat": "21.1667", "lng": "92.2333" },
    { "city": "Kha Maung Seik", "city_mm": "ခမောင်းဆိပ်မြို့", "lat": "21.5000", "lng": "92.4667" },
    { "city": "Myin Hlut", "city_mm": "မြင်းလွှတ်မြို့", "lat": "20.8500", "lng": "92.3000" },
    { "city": "Buthidaung", "city_mm": "ဘူးသီးတောင်မြို့", "lat": "20.8291", "lng": "92.5518" },
    { "city": "Kyaukpyu", "city_mm": "ကျောက်ဖြူမြို့", "lat": "19.4333", "lng": "93.5419" },
    { "city": "Sanè", "city_mm": "စနဲမြို့", "lat": "19.5333", "lng": "93.6167" },
    { "city": "Manaung", "city_mm": "မာန်အောင်မြို့", "lat": "18.9249", "lng": "93.5851" },
    { "city": "Ramree", "city_mm": "ရမ်းဗြဲမြို့", "lat": "19.2842", "lng": "93.7263" },
    { "city": "Lay Taung", "city_mm": "လေးတောင်မြို့", "lat": "18.9120", "lng": "94.2952" },
    { "city": "Ann", "city_mm": "အမ်းမြို့", "lat": "19.8131", "lng": "94.0239" },
    { "city": "Taungup", "city_mm": "တောင်ကုတ်မြို့", "lat": "18.9006", "lng": "94.0868" },
    { "city": "Ma-Ei", "city_mm": "မအီမြို့", "lat": "18.5363", "lng": "94.3177" },
    { "city": "Tanlwe", "city_mm": "တန်းလွဲရွာမမြို့", "lat": "18.5000", "lng": "94.3833" },
    { "city": "Gwa", "city_mm": "ဂွမြို့", "lat": "17.6033", "lng": "94.5924" },
    { "city": "Kyeintali", "city_mm": "ကျိန္တလီမြို့", "lat": "17.5115", "lng": "94.3351" }
  ],
  "Yangon Region": [
    { "city": "Yangon", "city_mm": "ရန်ကုန်မြို့", "lat": "16.8661", "lng": "96.1951" },
    { "city": "Insein", "city_mm": "အင်းစိန်မြို့", "lat": "16.8928", "lng": "96.0981" },
    { "city": "Mingaladon", "city_mm": "မင်္ဂလာဒုံမြို့", "lat": "16.9187", "lng": "96.1370" },
    { "city": "Htaukkyant", "city_mm": "ထောက်ကြံ့မြို့", "lat": "17.0265", "lng": "96.1990" },
    { "city": "Hmawbi", "city_mm": "မှော်ဘီမြို့", "lat": "17.1224", "lng": "95.9413" },
    { "city": "Hlegu", "city_mm": "လှည်းကူးမြို့", "lat": "17.1630", "lng": "96.2996" },
    { "city": "Taikkyi", "city_mm": "တိုက်ကြီးမြို့", "lat": "17.6511", "lng": "96.1921" },
    { "city": "Okekan", "city_mm": "ဥက္ကံမြို့", "lat": "17.4410", "lng": "96.0947" },
    { "city": "Ahpyauk", "city_mm": "အဖျောက်မြို့", "lat": "17.3925", "lng": "96.4667" },
    { "city": "Htantabin (Yangon)", "city_mm": "ထန်းတပင်မြို့", "lat": "17.0343", "lng": "95.9545" },
    { "city": "Shwepyitha", "city_mm": "ရွှေပြည်သာမြို့", "lat": "16.9620", "lng": "96.0480" },
    { "city": "Hlaingthaya", "city_mm": "လှိုင်သာယာမြို့", "lat": "16.8925", "lng": "96.0329" },
    { "city": "Thingangyun", "city_mm": "သင်္ဃန်းကျွန်းမြို့", "lat": "16.8220", "lng": "96.2025" },
    { "city": "Yankin", "city_mm": "ရန်ကင်းမြို့", "lat": "16.8393", "lng": "96.1656" },
    { "city": "South Okkalapa", "city_mm": "တောင်ဥက္ကလာပမြို့", "lat": "16.8478", "lng": "96.1959" },
    { "city": "North Okkalapa", "city_mm": "မြောက်ဥက္ကလာပမြို့", "lat": "16.9025", "lng": "96.1529" },
    { "city": "Thaketa", "city_mm": "သာကေတမြို့", "lat": "16.7850", "lng": "96.2031" },
    { "city": "Dawbon", "city_mm": "ဒေါပုံမြို့", "lat": "16.7688", "lng": "96.2047" },
    { "city": "Tamwe", "city_mm": "တာမွေမြို့", "lat": "16.8057", "lng": "96.1756" },
    { "city": "Pazundaung", "city_mm": "ပုဇွန်တောင်မြို့", "lat": "16.7792", "lng": "96.1813" },
    { "city": "Botahtaung", "city_mm": "ဗိုလ်တထောင်မြို့", "lat": "16.7685", "lng": "96.1775" },
    { "city": "Dagon Myothit (South)", "city_mm": "ဒဂုံမြို့သစ်တောင်ပိုင်း", "lat": "16.8667", "lng": "96.2500" },
    { "city": "Dagon Myothit (North)", "city_mm": "ဒဂုံမြို့သစ်မြောက်ပိုင်း", "lat": "16.9500", "lng": "96.2000" },
    { "city": "Dagon Myothit (East)", "city_mm": "ဒဂုံမြို့သစ်အရှေ့ပိုင်း", "lat": "16.9000", "lng": "96.2500" },
    { "city": "Dagon Myothit (Seikkan)", "city_mm": "ဒဂုံမြို့သစ်ဆိပ်ကမ်း", "lat": "16.9970", "lng": "96.2100" },
    { "city": "Mingalar Taungnyunt", "city_mm": "မင်္ဂလာတောင်ညွန့်မြို့", "lat": "16.7883", "lng": "96.1678" },
    { "city": "Thanlyin", "city_mm": "သန်လျင်မြို့", "lat": "16.7108", "lng": "96.2495" },
    { "city": "Kyauktan", "city_mm": "ကျောက်တန်းမြို့", "lat": "16.6383", "lng": "96.9581" },
    { "city": "Tada", "city_mm": "တံတားမြို့", "lat": "16.5583", "lng": "96.4167" },
    { "city": "Thongwa", "city_mm": "သုံးခွမြို့", "lat": "16.7626", "lng": "96.5273" },
    { "city": "Kayan", "city_mm": "ခရမ်းမြို့", "lat": "16.7681", "lng": "96.5630" },
    { "city": "Twante", "city_mm": "တွံတေးမြို့", "lat": "16.7098", "lng": "95.9386" },
    { "city": "Kawhmu", "city_mm": "ကော့မှူးမြို့", "lat": "16.6050", "lng": "95.9410" },
    { "city": "Kungyangon", "city_mm": "ကွမ်းခြံကုန်းမြို့", "lat": "16.4588", "lng": "95.9560" },
    { "city": "Dala", "city_mm": "ဒလမြို့", "lat": "16.7506", "lng": "96.1608" },
    { "city": "Seikgyikanaungto", "city_mm": "ဆိပ်ကြီးခနောင်တိုမြို့", "lat": "16.7570", "lng": "96.0560" },
    { "city": "Cocokyun", "city_mm": "ကိုကိုးကျွန်းမြို့", "lat": "16.8783", "lng": "94.6533" },
    { "city": "Kyauktada", "city_mm": "ကျောက်တံတားမြို့", "lat": "16.7725", "lng": "96.1581" },
    { "city": "Pabedan", "city_mm": "ပန်းဘဲတန်းမြို့", "lat": "16.7772", "lng": "96.1577" },
    { "city": "Lanmadaw", "city_mm": "လမ်းမတော်မြို့", "lat": "16.7777", "lng": "96.1450" },
    { "city": "Latha", "city_mm": "လသာမြို့", "lat": "16.7767", "lng": "96.1510" },
    { "city": "Ahlone", "city_mm": "အလုံမြို့", "lat": "16.7865", "lng": "96.1321" },
    { "city": "Kyeemyindaing", "city_mm": "ကြည့်မြင်တိုင်မြို့", "lat": "16.7951", "lng": "96.1125" },
    { "city": "Sanchaung", "city_mm": "စမ်းချောင်းမြို့", "lat": "16.8036", "lng": "96.1346" },
    { "city": "Hlaing", "city_mm": "လှိုင်မြို့", "lat": "16.8452", "lng": "96.1305" },
    { "city": "Kamayut", "city_mm": "ကမာရွတ်မြို့", "lat": "16.8307", "lng": "96.1352" },
    { "city": "Mayangone", "city_mm": "မရမ်းကုန်းမြို့", "lat": "16.8864", "lng": "96.1329" },
    { "city": "Dagon", "city_mm": "ဒဂုံမြို့", "lat": "16.7976", "lng": "96.1602" },
    { "city": "Bahan", "city_mm": "ဗဟန်းမြို့", "lat": "16.8072", "lng": "96.1658" },
    { "city": "Seikkan", "city_mm": "ဆိပ်ကမ်းမြို့", "lat": "16.7667", "lng": "96.2000" },
    { "city": "Hlaingthaya (East)", "city_mm": "လှိုင်သာယာ (အရှေ့ပိုင်း) မြို့", "lat": "16.8960", "lng": "96.0220" },
    { "city": "Hlaingthaya (West)", "city_mm": "လှိုင်သာယာ (အနောက်ပိုင်း) မြို့", "lat": "16.9020", "lng": "96.0050" }
  ],
  "Shan State": [
    { "city": "Taunggyi", "city_mm": "တောင်ကြီးမြို့", "lat": "20.7892", "lng": "97.0378" },
    { "city": "Ayetharyar", "city_mm": "အေးသာယာမြို့", "lat": "20.7278", "lng": "97.0481" },
    { "city": "Kyauktalon (Nyaungshwe)", "city_mm": "ကျောက်တလုံးကြီးမြို့", "lat": "20.9000", "lng": "96.9167" },
    { "city": "Shwenyaung", "city_mm": "ရွှေညောင်မြို့", "lat": "20.7981", "lng": "96.9012" },
    { "city": "Nyaungshwe", "city_mm": "ညောင်ရွှေမြို့", "lat": "20.6617", "lng": "96.9367" },
    { "city": "Nang Pang", "city_mm": "နန်းပန်မြို့", "lat": "20.5333", "lng": "96.8833" },
    { "city": "Hopong", "city_mm": "ဟိုပုံးမြို့", "lat": "20.1323", "lng": "97.0443" },
    { "city": "Hsihseng", "city_mm": "ဆီဆိုင်မြို့", "lat": "19.5986", "lng": "97.2938" },
    { "city": "Kalaw", "city_mm": "ကလောမြို့", "lat": "20.6320", "lng": "96.5642" },
    { "city": "Aungpan", "city_mm": "အောင်ပန်းမြို့", "lat": "20.5850", "lng": "96.6550" },
    { "city": "He Hoe", "city_mm": "ဟဲဟိုးမြို့", "lat": "20.6914", "lng": "96.7913" },
    { "city": "Pindaya", "city_mm": "ပင်းတယမြို့", "lat": "20.9044", "lng": "96.6644" },
    { "city": "Ywangan", "city_mm": "ရွာငံမြို့", "lat": "21.1120", "lng": "96.6624" },
    { "city": "Lawksawk", "city_mm": "ရပ်စောက်မြို့", "lat": "22.1019", "lng": "96.8303" },
    { "city": "Intaw", "city_mm": "အင်တောမြို့", "lat": "22.3142", "lng": "96.7031" },
    { "city": "Pinlaung", "city_mm": "ပင်လောင်းမြို့", "lat": "20.9667", "lng": "96.7167" },
    { "city": "Naungtayar", "city_mm": "နောင်တရားမြို့", "lat": "20.6600", "lng": "96.7780" },
    { "city": "Pang Lawng", "city_mm": "ပေါင်းလောင်းမြို့", "lat": "20.4000", "lng": "96.7333" },
    { "city": "Pekon", "city_mm": "ဖယ်ခုံမြို့", "lat": "19.6754", "lng": "97.2034" },
    { "city": "Loilen", "city_mm": "လွိုင်လင်မြို့", "lat": "20.6312", "lng": "97.5722" },
    { "city": "Pinlon", "city_mm": "ပင်လုံမြို့", "lat": "20.5167", "lng": "97.1000" },
    { "city": "Laihka", "city_mm": "လဲချားမြို့", "lat": "20.2792", "lng": "97.5572" },
    { "city": "Nansang", "city_mm": "နမ့်စန်မြို့", "lat": "20.9464", "lng": "97.6879" },
    { "city": "Kho Lam", "city_mm": "ခိုလမ်မြို့", "lat": "20.6200", "lng": "97.1833" },
    { "city": "Kunhing", "city_mm": "ကွန်ဟိန်းမြို့", "lat": "20.8300", "lng": "98.0320" },
    { "city": "Karli", "city_mm": "ကာလိမြို့", "lat": "21.1800", "lng": "98.0340" },
    { "city": "Kyethi", "city_mm": "ကျေးသီးမြို့", "lat": "21.0508", "lng": "97.8646" },
    { "city": "Mong Nawng", "city_mm": "မိုင်းနောင်မြို့", "lat": "20.9132", "lng": "98.1282" },
    { "city": "Mongkaing", "city_mm": "မိုင်းကိုင်မြို့", "lat": "21.5494", "lng": "97.9933" },
    { "city": "Monghsu", "city_mm": "မိုင်းရှူးမြို့", "lat": "21.6875", "lng": "97.8765" },
    { "city": "Mongsan", "city_mm": "မိုင်းစံမြို့", "lat": "21.5333", "lng": "98.0833" },
    { "city": "Langkho", "city_mm": "လင်းခေးမြို့", "lat": "20.2838", "lng": "99.9336" },
    { "city": "Homein", "city_mm": "ဟိုမိန်းမြို့", "lat": "20.4333", "lng": "99.2667" },
    { "city": "Mongnai", "city_mm": "မိုးနဲမြို့", "lat": "20.5000", "lng": "97.7494" },
    { "city": "Kengtawng", "city_mm": "ကျိုင်းတောင်းမြို့", "lat": "20.3414", "lng": "97.9878" },
    { "city": "Mawkmai", "city_mm": "မောက်မယ်မြို့", "lat": "20.1692", "lng": "97.6403" },
    { "city": "Mongpan", "city_mm": "မိုင်းပန်မြို့", "lat": "20.3333", "lng": "97.9167" },
    { "city": "Lashio", "city_mm": "လားရှိုးမြို့", "lat": "22.9350", "lng": "97.7498" },
    { "city": "Hseni", "city_mm": "သိန္နီမြို့", "lat": "22.9200", "lng": "97.3030" },
    { "city": "Mongyai", "city_mm": "မိုင်းရယ်မြို့", "lat": "23.4529", "lng": "97.7564" },
    { "city": "Tangyan", "city_mm": "တန့်ယန်းမြို့", "lat": "23.7287", "lng": "98.2235" },
    { "city": "Pangsang", "city_mm": "ပန်ဆန်းမြို့", "lat": "23.4686", "lng": "98.7461" },
    { "city": "Man Kan", "city_mm": "မန်ကန်မြို့", "lat": "23.1417", "lng": "98.6264" },
    { "city": "Narphan", "city_mm": "နားဖန်မြို့", "lat": "23.0000", "lng": "98.5333" },
    { "city": "Pangwaun", "city_mm": "ပန်ဝိုင်မြို့", "lat": "23.0000", "lng": "98.6667" },
    { "city": "Mong Mao", "city_mm": "မိုင်းမောမြို့", "lat": "23.1229", "lng": "97.9038" },
    { "city": "Muse", "city_mm": "မူဆယ်မြို့", "lat": "23.9848", "lng": "97.9058" },
    { "city": "Monekoe", "city_mm": "မုန်းကိုးမြို့", "lat": "23.8706", "lng": "97.6742" },
    { "city": "Manhlyoe", "city_mm": "မန်ဟျိုးမြို့", "lat": "23.6314", "lng": "97.8606" },
    { "city": "Panghseng", "city_mm": "ပန်ဆိုင်းမြို့", "lat": "23.9879", "lng": "97.9188" },
    { "city": "Namhkan", "city_mm": "နမ့်ခမ်းမြို့", "lat": "23.8604", "lng": "97.6939" },
    { "city": "Kutkai", "city_mm": "ကွတ်ခိုင်မြို့", "lat": "23.4338", "lng": "97.9334" },
    { "city": "Tarmoenye", "city_mm": "တာမိုးညဲမြို့", "lat": "23.3000", "lng": "97.7833" },
    { "city": "Kyaukme", "city_mm": "ကျောက်မဲမြို့", "lat": "22.5383", "lng": "97.0181" },
    { "city": "Mongngawt", "city_mm": "မိုင်းငေါ့မြို့", "lat": "22.2833", "lng": "97.1167" },
    { "city": "Monglon", "city_mm": "မိုင်းလုံမြို့", "lat": "21.3667", "lng": "99.2500" },
    { "city": "Nawnghkio", "city_mm": "နောင်ချိုမြို့", "lat": "22.3353", "lng": "96.8336" },
    { "city": "Hsipaw", "city_mm": "သီပေါမြို့", "lat": "22.6198", "lng": "97.3053" },
    { "city": "Namtu", "city_mm": "နမ္မတူမြို့", "lat": "23.0838", "lng": "97.3991" },
    { "city": "Namhsan", "city_mm": "နမ့်ဆန်မြို့", "lat": "22.9364", "lng": "97.6675" },
    { "city": "Mongmit", "city_mm": "မိုးမိတ်မြို့", "lat": "23.1025", "lng": "96.6639" },
    { "city": "Mabein", "city_mm": "မဘိမ်းမြို့", "lat": "23.4503", "lng": "96.7985" },
    { "city": "Manton", "city_mm": "မန်တုံမြို့", "lat": "23.0508", "lng": "96.4789" },
    { "city": "Kunlong", "city_mm": "ကွမ်းလုံမြို့", "lat": "23.2810", "lng": "98.6486" },
    { "city": "Hopang", "city_mm": "ဟိုပန်မြို့", "lat": "22.3336", "lng": "98.4360" },
    { "city": "Namtit", "city_mm": "နမ့်တစ်မြို့", "lat": "22.3833", "lng": "98.5000" },
    { "city": "Pan Lon", "city_mm": "ပန်လုံမြို့", "lat": "22.1500", "lng": "99.0500" },
    { "city": "Laukkaing", "city_mm": "လောက်ကိုင်မြို့", "lat": "22.6341", "lng": "99.7505" },
    { "city": "Chinshwehaw", "city_mm": "ချင်းရွှေဟော်မြို့", "lat": "23.3331", "lng": "99.6333" },
    { "city": "Konkyan", "city_mm": "ကုန်းကြမ်းမြို့", "lat": "23.4942", "lng": "98.6094" },
    { "city": "Maw Hteik", "city_mm": "မော်ထိုက်မြို့", "lat": "23.0333", "lng": "98.2500" },
    { "city": "Matman", "city_mm": "မက်မန်းမြို့", "lat": "23.0167", "lng": "98.1667" },
    { "city": "Namtit (Wa)", "city_mm": "နမ့်တစ်မြို့", "lat": "22.8833", "lng": "99.2500" },
    { "city": "Narwee", "city_mm": "နာဝီးမြို့", "lat": "22.6333", "lng": "99.1000" },
    { "city": "Man Tun", "city_mm": "မန်တွန်းမြို့", "lat": "22.2000", "lng": "99.3500" },
    { "city": "Hsawng Hpa", "city_mm": "ဆောင်ဖမြို့", "lat": "22.1000", "lng": "99.4833" },
    { "city": "Hkunmar", "city_mm": "ခွန်းမားမြို့", "lat": "22.2833", "lng": "99.3333" },
    { "city": "Longtan", "city_mm": "လုံထန်မြို့", "lat": "22.6167", "lng": "99.4167" },
    { "city": "Yawnghwe", "city_mm": "ယောင်လင်းမြို့", "lat": "22.0333", "lng": "99.5000" },
    { "city": "Linhaw", "city_mm": "လင်ဟော်မြို့", "lat": "22.7833", "lng": "99.1667" },
    { "city": "Ka Lawng Hpar", "city_mm": "ကလောင်ဖာမြို့", "lat": "22.3833", "lng": "99.0833" },
    { "city": "Aikchan", "city_mm": "အိုက်ချန်မြို့", "lat": "22.5167", "lng": "99.6000" },
    { "city": "Yin Pang", "city_mm": "ရင်ဖန့်မြို့", "lat": "22.8833", "lng": "99.8000" },
    { "city": "Man Man Hseng", "city_mm": "မန်မန်ဆိုင်မြို့", "lat": "22.6000", "lng": "99.7667" },
    { "city": "Nawnghkio (Wa)", "city_mm": "နောင်ခစ်မြို့", "lat": "22.5000", "lng": "99.9167" },
    { "city": "Wein Kao", "city_mm": "ဝိန်းကောင်မြို့", "lat": "22.4000", "lng": "99.7500" }
  ],
  "Ayeyarwady Region": [
    { "city": "Pathein", "city_mm": "ပုသိမ်မြို့", "lat": "16.7675", "lng": "94.7287" },
    { "city": "Shwethaungyan", "city_mm": "ရွှေသောင်ယံမြို့", "lat": "16.9333", "lng": "94.5333" },
    { "city": "Ngwesaung", "city_mm": "ငွေဆောင်မြို့", "lat": "16.8620", "lng": "94.4651" },
    { "city": "Chaungtha", "city_mm": "ချောင်းသာမြို့", "lat": "16.9300", "lng": "94.4300" },
    { "city": "Kangyidaunt", "city_mm": "ကန်ကြီးထောင့်မြို့", "lat": "16.6772", "lng": "94.7187" },
    { "city": "Thabaung", "city_mm": "သာပေါင်းမြို့", "lat": "16.8636", "lng": "94.3325" },
    { "city": "Ngapudaw", "city_mm": "ငပုတောမြို့", "lat": "16.4669", "lng": "94.7356" },
    { "city": "Ngayokekaung", "city_mm": "ငရုတ်ကောင်းမြို့", "lat": "16.2413", "lng": "94.4722" },
    { "city": "Hainggyikyun", "city_mm": "ဟိုင်းကြီးကျွန်းမြို့", "lat": "16.0982", "lng": "94.5548" },
    { "city": "Kyonpyaw", "city_mm": "ကျုံပျော်မြို့", "lat": "17.3006", "lng": "95.1953" },
    { "city": "Ahtaung", "city_mm": "အထောင်မြို့", "lat": "17.0667", "lng": "95.2167" },
    { "city": "Yegyi", "city_mm": "ရေကြည်မြို့", "lat": "17.4856", "lng": "95.2475" },
    { "city": "Ngathaingchaung", "city_mm": "ငသိုင်းချောင်းမြို့", "lat": "17.2906", "lng": "95.0958" },
    { "city": "Ahthoke", "city_mm": "အသုတ်မြို့", "lat": "17.1033", "lng": "95.0533" },
    { "city": "Kyaunggon", "city_mm": "ကျောင်းကုန်းမြို့", "lat": "16.9724", "lng": "94.7127" },
    { "city": "Hinthada", "city_mm": "ဟင်္သာတမြို့", "lat": "17.6483", "lng": "95.4672" },
    { "city": "Ta Loke Htaw", "city_mm": "တလုတ္ထော်မြို့", "lat": "17.5581", "lng": "95.3583" },
    { "city": "Duyar", "city_mm": "ဒူးယားမြို့", "lat": "17.3750", "lng": "95.2100" },
    { "city": "Zalun", "city_mm": "ဇလွန်မြို့", "lat": "17.5217", "lng": "95.6594" },
    { "city": "Lemyethna", "city_mm": "လေးမျက်နှာမြို့", "lat": "17.6178", "lng": "95.4936" },
    { "city": "Myanaung", "city_mm": "မြန်အောင်မြို့", "lat": "18.2849", "lng": "95.3208" },
    { "city": "Kanaung", "city_mm": "ကနောင်မြို့", "lat": "18.3500", "lng": "95.4625" },
    { "city": "Inbin", "city_mm": "အင်ပင်မြို့", "lat": "18.1367", "lng": "95.3600" },
    { "city": "Kyangin", "city_mm": "ကြံခင်းမြို့", "lat": "18.3501", "lng": "95.6293" },
    { "city": "Batha", "city_mm": "ဘက်ရဲမြို့", "lat": "18.4417", "lng": "95.7475" },
    { "city": "Ingapu", "city_mm": "အင်္ဂပူမြို့", "lat": "17.3049", "lng": "95.3093" },
    { "city": "Htoogyi", "city_mm": "ထူးကြီးမြို့", "lat": "17.0762", "lng": "95.4639" },
    { "city": "Mezaligon", "city_mm": "မဲဇလီကုန်းမြို့", "lat": "16.9500", "lng": "95.5000" },
    { "city": "Myaungmya", "city_mm": "မြောင်းမြမြို့", "lat": "16.5788", "lng": "94.9225" },
    { "city": "Einme", "city_mm": "အိမ်မဲမြို့", "lat": "16.9533", "lng": "95.3886" },
    { "city": "Labutta", "city_mm": "လပွတ္တာမြို့", "lat": "16.1619", "lng": "94.7178" },
    { "city": "Pyinsalu", "city_mm": "ပြင်စလူမြို့", "lat": "15.9000", "lng": "94.7667" },
    { "city": "Labutta (3 Mile)", "city_mm": "လပွတ္တာ (၃) မိုင်မြို့", "lat": "16.1670", "lng": "94.6950" },
    { "city": "Wakema", "city_mm": "ဝါးခယ်မမြို့", "lat": "16.6048", "lng": "95.1822" },
    { "city": "Kyonmange", "city_mm": "ကျုံမငေးမြို့", "lat": "16.7415", "lng": "95.2415" },
    { "city": "Mawlamyinegyun", "city_mm": "မော်လမြိုင်ကျွန်းမြို့", "lat": "16.3782", "lng": "95.2615" },
    { "city": "Maubin", "city_mm": "မအူပင်မြို့", "lat": "16.7317", "lng": "95.6537" },
    { "city": "Pantanaw", "city_mm": "ပန်းတနော်မြို့", "lat": "17.0349", "lng": "95.4590" },
    { "city": "Nyaungdon", "city_mm": "ညောင်တုန်းမြို့", "lat": "17.0362", "lng": "95.6475" },
    { "city": "Danubyu", "city_mm": "ဓနုဖြူမြို့", "lat": "17.2335", "lng": "95.6531" },
    { "city": "Pyapon", "city_mm": "ဖျာပုံမြို့", "lat": "16.2852", "lng": "95.6788" },
    { "city": "Ahmar", "city_mm": "အမာမြို့", "lat": "16.1522", "lng": "95.2010" },
    { "city": "Bogale", "city_mm": "ဘိုကလေးမြို့", "lat": "16.0527", "lng": "95.3673" },
    { "city": "Kyaiklat", "city_mm": "ကျိုက်လတ်မြို့", "lat": "16.4437", "lng": "95.7236" },
    { "city": "Dedaye", "city_mm": "ဒေးဒရဲမြို့", "lat": "16.5559", "lng": "95.2183" }
  ],
  "Naypyidaw Union Territory": [
    { "city": "Nay Pyi Taw", "city_mm": "နေပြည်တော်မြို့", "lat": "19.7636", "lng": "96.0785" },
    { "city": "Zeyar Thiri", "city_mm": "ဇေယျာသီရိမြို့", "lat": "19.8248", "lng": "96.2325" },
    { "city": "Zabuthiri", "city_mm": "ဇမ္ဗူသီရိမြို့", "lat": "19.7481", "lng": "96.1483" },
    { "city": "Tatkon", "city_mm": "တပ်ကုန်းမြို့", "lat": "19.6733", "lng": "96.2000" },
    { "city": "Dekkhinathiri", "city_mm": "ဒက္ခိဏသီရိမြို့", "lat": "19.7250", "lng": "96.0861" },
    { "city": "Pobbathiri", "city_mm": "ပုဗ္ဗသီရိမြို့", "lat": "19.7522", "lng": "96.2042" },
    { "city": "Pyinmana", "city_mm": "ပျဉ်းမနားမြို့", "lat": "19.7379", "lng": "96.2083" },
    { "city": "Lewe", "city_mm": "လယ်ဝေးမြို့", "lat": "19.6733", "lng": "96.1172" },
    { "city": "Ottarathiri", "city_mm": "ဥတ္တရသီရိမြို့", "lat": "19.8097", "lng": "96.2561" }
  ]
}
